{"direction":[{"direction_id":"0","direction_name":"Westbound","stop":[{"stop_order":"1","stop_id":"70210","stop_name":"Lechmere - Inbound","parent_station":"place-lech","parent_station_name":"Lechmere","stop_lat":"42.370772","stop_lon":"-71.076536"},{"stop_order":"10","stop_id":"70208","stop_name":"Science Park - Inbound","parent_station":"place-spmnl","parent_station_name":"Science Park","stop_lat":"42.366664","stop_lon":"-71.067666"},{"stop_order":"20","stop_id":"70206","stop_name":"North Station - Green Line Inbound","parent_station":"place-north","parent_station_name":"North Station","stop_lat":"42.365577","stop_lon":"-71.06129"},{"stop_order":"30","stop_id":"70204","stop_name":"Haymarket - Green Line Inbound","parent_station":"place-haecl","parent_station_name":"Haymarket","stop_lat":"42.363021","stop_lon":"-71.05829"},{"stop_order":"40","stop_id":"70202","stop_name":"Government Center - Green Line Westbound","parent_station":"place-gover","parent_station_name":"Government Center","stop_lat":"42.359705","stop_lon":"-71.059215"},{"stop_order":"80","stop_id":"70199","stop_name":"Park Street - Green Line - E Branch Berth","parent_station":"place-pktrm","parent_station_name":"Park Street","stop_lat":"42.35639457","stop_lon":"-71.0624242"},{"stop_order":"90","stop_id":"70159","stop_name":"Boylston - Outbound","parent_station":"place-boyls","parent_station_name":"Boylston","stop_lat":"42.35302","stop_lon":"-71.06459"},{"stop_order":"100","stop_id":"70157","stop_name":"Arlington - Outbound","parent_station":"place-armnl","parent_station_name":"Arlington","stop_lat":"42.351902","stop_lon":"-71.070893"},{"stop_order":"110","stop_id":"70155","stop_name":"Copley - Outbound","parent_station":"place-coecl","parent_station_name":"Copley","stop_lat":"42.349974","stop_lon":"-71.077447"},{"stop_order":"580","stop_id":"70239","stop_name":"Prudential - Outbound","parent_station":"place-prmnl","parent_station_name":"Prudential","stop_lat":"42.34557","stop_lon":"-71.081696"},{"stop_order":"590","stop_id":"70241","stop_name":"Symphony - Outbound","parent_station":"place-symcl","parent_station_name":"Symphony","stop_lat":"42.342687","stop_lon":"-71.085056"},{"stop_order":"600","stop_id":"70243","stop_name":"Northeastern - Outbound","parent_station":"place-nuniv","parent_station_name":"Northeastern University","stop_lat":"42.340401","stop_lon":"-71.088806"},{"stop_order":"610","stop_id":"70245","stop_name":"Museum of Fine Arts - Outbound","parent_station":"place-mfa","parent_station_name":"Museum of Fine Arts","stop_lat":"42.337711","stop_lon":"-71.095512"},{"stop_order":"620","stop_id":"70247","stop_name":"Longwood Medical Area - Outbound","parent_station":"place-lngmd","parent_station_name":"Longwood Medical Area","stop_lat":"42.33596","stop_lon":"-71.100052"},{"stop_order":"630","stop_id":"70249","stop_name":"Brigham Circle - Outbound","parent_station":"place-brmnl","parent_station_name":"Brigham Circle","stop_lat":"42.334229","stop_lon":"-71.104609"},{"stop_order":"640","stop_id":"70251","stop_name":"Fenwood Road - Outbound","parent_station":"place-fenwd","parent_station_name":"Fenwood Road","stop_lat":"42.333706","stop_lon":"-71.105728"},{"stop_order":"650","stop_id":"70253","stop_name":"Mission Park - Outbound","parent_station":"place-mispk","parent_station_name":"Mission Park","stop_lat":"42.333195","stop_lon":"-71.109756"},{"stop_order":"660","stop_id":"70255","stop_name":"Riverway - Outbound","parent_station":"place-rvrwy","parent_station_name":"Riverway","stop_lat":"42.331684","stop_lon":"-71.111931"},{"stop_order":"670","stop_id":"70257","stop_name":"Back of the Hill - Outbound","parent_station":"place-bckhl","parent_station_name":"Back of the Hill","stop_lat":"42.330139","stop_lon":"-71.111313"},{"stop_order":"680","stop_id":"70259","stop_name":"Heath Street - Outbound","parent_station":"place-hsmnl","parent_station_name":"Heath Street","stop_lat":"42.328681","stop_lon":"-71.110559"}]},{"direction_id":"1","direction_name":"Eastbound","stop":[{"stop_order":"440","stop_id":"70260","stop_name":"Heath Street - Inbound","parent_station":"place-hsmnl","parent_station_name":"Heath Street","stop_lat":"42.328681","stop_lon":"-71.110559"},{"stop_order":"450","stop_id":"70258","stop_name":"Back of the Hill - Inbound","parent_station":"place-bckhl","parent_station_name":"Back of the Hill","stop_lat":"42.330139","stop_lon":"-71.111313"},{"stop_order":"460","stop_id":"70256","stop_name":"Riverway - Inbound","parent_station":"place-rvrwy","parent_station_name":"Riverway","stop_lat":"42.331684","stop_lon":"-71.111931"},{"stop_order":"470","stop_id":"70254","stop_name":"Mission Park - Inbound","parent_station":"place-mispk","parent_station_name":"Mission Park","stop_lat":"42.333195","stop_lon":"-71.109756"},{"stop_order":"480","stop_id":"70252","stop_name":"Fenwood Road - Inbound","parent_station":"place-fenwd","parent_station_name":"Fenwood Road","stop_lat":"42.333706","stop_lon":"-71.105728"},{"stop_order":"490","stop_id":"70250","stop_name":"Brigham Circle - Inbound","parent_station":"place-brmnl","parent_station_name":"Brigham Circle","stop_lat":"42.334229","stop_lon":"-71.104609"},{"stop_order":"500","stop_id":"70248","stop_name":"Longwood Medical Area - Inbound","parent_station":"place-lngmd","parent_station_name":"Longwood Medical Area","stop_lat":"42.33596","stop_lon":"-71.100052"},{"stop_order":"510","stop_id":"70246","stop_name":"Museum of Fine Arts - Inbound","parent_station":"place-mfa","parent_station_name":"Museum of Fine Arts","stop_lat":"42.337711","stop_lon":"-71.095512"},{"stop_order":"520","stop_id":"70244","stop_name":"Northeastern - Inbound","parent_station":"place-nuniv","parent_station_name":"Northeastern University","stop_lat":"42.340401","stop_lon":"-71.088806"},{"stop_order":"530","stop_id":"70242","stop_name":"Symphony - Inbound","parent_station":"place-symcl","parent_station_name":"Symphony","stop_lat":"42.342687","stop_lon":"-71.085056"},{"stop_order":"540","stop_id":"70240","stop_name":"Prudential - Inbound","parent_station":"place-prmnl","parent_station_name":"Prudential","stop_lat":"42.34557","stop_lon":"-71.081696"},{"stop_order":"570","stop_id":"70154","stop_name":"Copley - Inbound","parent_station":"place-coecl","parent_station_name":"Copley","stop_lat":"42.349974","stop_lon":"-71.077447"},{"stop_order":"580","stop_id":"70156","stop_name":"Arlington - Inbound","parent_station":"place-armnl","parent_station_name":"Arlington","stop_lat":"42.351902","stop_lon":"-71.070893"},{"stop_order":"590","stop_id":"70158","stop_name":"Boylston - Inbound","parent_station":"place-boyls","parent_station_name":"Boylston","stop_lat":"42.35302","stop_lon":"-71.06459"},{"stop_order":"600","stop_id":"70200","stop_name":"Park Street - Green Line Eastbound","parent_station":"place-pktrm","parent_station_name":"Park Street","stop_lat":"42.35639457","stop_lon":"-71.0624242"},{"stop_order":"610","stop_id":"70201","stop_name":"Government Center - Green Line Eastbound","parent_station":"place-gover","parent_station_name":"Government Center","stop_lat":"42.359705","stop_lon":"-71.059215"},{"stop_order":"620","stop_id":"70203","stop_name":"Haymarket - Green Line Outbound","parent_station":"place-haecl","parent_station_name":"Haymarket","stop_lat":"42.363021","stop_lon":"-71.05829"},{"stop_order":"630","stop_id":"70205","stop_name":"North Station - Green Line Outbound","parent_station":"place-north","parent_station_name":"North Station","stop_lat":"42.365577","stop_lon":"-71.06129"},{"stop_order":"640","stop_id":"70207","stop_name":"Science Park - Outbound","parent_station":"place-spmnl","parent_station_name":"Science Park","stop_lat":"42.366664","stop_lon":"-71.067666"},{"stop_order":"650","stop_id":"70209","stop_name":"Lechmere - Outbound","parent_station":"place-lech","parent_station_name":"Lechmere","stop_lat":"42.370772","stop_lon":"-71.076536"}]}]}