{"direction":[{"direction_id":"0","direction_name":"Westbound","stop":[{"stop_order":"20","stop_id":"70206","stop_name":"North Station - Green Line Inbound","parent_station":"place-north","parent_station_name":"North Station","stop_lat":"42.365577","stop_lon":"-71.06129"},{"stop_order":"30","stop_id":"70204","stop_name":"Haymarket - Green Line Inbound","parent_station":"place-haecl","parent_station_name":"Haymarket","stop_lat":"42.363021","stop_lon":"-71.05829"},{"stop_order":"40","stop_id":"70202","stop_name":"Government Center - Green Line Westbound","parent_station":"place-gover","parent_station_name":"Government Center","stop_lat":"42.359705","stop_lon":"-71.059215"},{"stop_order":"60","stop_id":"70197","stop_name":"Park Street - Green Line - C Branch Berth","parent_station":"place-pktrm","parent_station_name":"Park Street","stop_lat":"42.35639457","stop_lon":"-71.0624242"},{"stop_order":"90","stop_id":"70159","stop_name":"Boylston - Outbound","parent_station":"place-boyls","parent_station_name":"Boylston","stop_lat":"42.35302","stop_lon":"-71.06459"},{"stop_order":"100","stop_id":"70157","stop_name":"Arlington - Outbound","parent_station":"place-armnl","parent_station_name":"Arlington","stop_lat":"42.351902","stop_lon":"-71.070893"},{"stop_order":"110","stop_id":"70155","stop_name":"Copley - Outbound","parent_station":"place-coecl","parent_station_name":"Copley","stop_lat":"42.349974","stop_lon":"-71.077447"},{"stop_order":"120","stop_id":"70153","stop_name":"Hynes - Outbound","parent_station":"place-hymnl","parent_station_name":"Hynes Convention Center","stop_lat":"42.347888","stop_lon":"-71.087903"},{"stop_order":"130","stop_id":"70151","stop_name":"Kenmore - Outbound","parent_station":"place-kencl","parent_station_name":"Kenmore","stop_lat":"42.348949","stop_lon":"-71.095169"},{"stop_order":"320","stop_id":"70211","stop_name":"Saint Mary Street - Outbound","parent_station":"place-smary","parent_station_name":"Saint Marys Street","stop_lat":"42.345974","stop_lon":"-71.107353"},{"stop_order":"330","stop_id":"70213","stop_name":"Hawes Street - Outbound","parent_station":"place-hwsst","parent_station_name":"Hawes Street","stop_lat":"42.344906","stop_lon":"-71.111145"},{"stop_order":"340","stop_id":"70215","stop_name":"Kent Street - Outbound","parent_station":"place-kntst","parent_station_name":"Kent Street","stop_lat":"42.344074","stop_lon":"-71.114197"},{"stop_order":"350","stop_id":"70217","stop_name":"Saint Paul Street - Outbound","parent_station":"place-stpul","parent_station_name":"Saint Paul Street","stop_lat":"42.343327","stop_lon":"-71.116997"},{"stop_order":"360","stop_id":"70219","stop_name":"Coolidge Corner - Outbound","parent_station":"place-cool","parent_station_name":"Coolidge Corner","stop_lat":"42.342116","stop_lon":"-71.121263"},{"stop_order":"370","stop_id":"70223","stop_name":"Summit Avenue - Outbound","parent_station":"place-sumav","parent_station_name":"Summit Ave.","stop_lat":"42.34111","stop_lon":"-71.12561"},{"stop_order":"380","stop_id":"70225","stop_name":"Brandon Hall - Outbound","parent_station":"place-bndhl","parent_station_name":"Brandon Hall","stop_lat":"42.340023","stop_lon":"-71.129082"},{"stop_order":"390","stop_id":"70227","stop_name":"Fairbanks Street - Outbound","parent_station":"place-fbkst","parent_station_name":"Fairbanks Street","stop_lat":"42.339725","stop_lon":"-71.131073"},{"stop_order":"400","stop_id":"70229","stop_name":"Washington Square - Outbound","parent_station":"place-bcnwa","parent_station_name":"Washington Square","stop_lat":"42.339394","stop_lon":"-71.13533"},{"stop_order":"410","stop_id":"70231","stop_name":"Tappan Street - Outbound","parent_station":"place-tapst","parent_station_name":"Tappan Street","stop_lat":"42.338459","stop_lon":"-71.138702"},{"stop_order":"420","stop_id":"70233","stop_name":"Dean Road - Outbound","parent_station":"place-denrd","parent_station_name":"Dean Road","stop_lat":"42.337807","stop_lon":"-71.141853"},{"stop_order":"430","stop_id":"70235","stop_name":"Englewood Avenue - Outbound","parent_station":"place-engav","parent_station_name":"Englewood Ave.","stop_lat":"42.336971","stop_lon":"-71.14566"},{"stop_order":"440","stop_id":"70237","stop_name":"Cleveland Circle - Outbound","parent_station":"place-clmnl","parent_station_name":"Cleveland Circle","stop_lat":"42.336142","stop_lon":"-71.149326"}]},{"direction_id":"1","direction_name":"Eastbound","stop":[{"stop_order":"180","stop_id":"70238","stop_name":"Cleveland Circle - Inbound","parent_station":"place-clmnl","parent_station_name":"Cleveland Circle","stop_lat":"42.336142","stop_lon":"-71.149326"},{"stop_order":"190","stop_id":"70236","stop_name":"Englewood Avenue - Inbound","parent_station":"place-engav","parent_station_name":"Englewood Ave.","stop_lat":"42.336971","stop_lon":"-71.14566"},{"stop_order":"200","stop_id":"70234","stop_name":"Dean Road - Inbound","parent_station":"place-denrd","parent_station_name":"Dean Road","stop_lat":"42.337807","stop_lon":"-71.141853"},{"stop_order":"210","stop_id":"70232","stop_name":"Tappan Street - Inbound","parent_station":"place-tapst","parent_station_name":"Tappan Street","stop_lat":"42.338459","stop_lon":"-71.138702"},{"stop_order":"220","stop_id":"70230","stop_name":"Washington Square - Inbound","parent_station":"place-bcnwa","parent_station_name":"Washington Square","stop_lat":"42.339394","stop_lon":"-71.13533"},{"stop_order":"230","stop_id":"70228","stop_name":"Fairbanks Street - Inbound","parent_station":"place-fbkst","parent_station_name":"Fairbanks Street","stop_lat":"42.339725","stop_lon":"-71.131073"},{"stop_order":"240","stop_id":"70226","stop_name":"Brandon Hall - Inbound","parent_station":"place-bndhl","parent_station_name":"Brandon Hall","stop_lat":"42.340023","stop_lon":"-71.129082"},{"stop_order":"250","stop_id":"70224","stop_name":"Summit Avenue - Inbound","parent_station":"place-sumav","parent_station_name":"Summit Ave.","stop_lat":"42.34111","stop_lon":"-71.12561"},{"stop_order":"260","stop_id":"70220","stop_name":"Coolidge Corner - Inbound","parent_station":"place-cool","parent_station_name":"Coolidge Corner","stop_lat":"42.342116","stop_lon":"-71.121263"},{"stop_order":"270","stop_id":"70218","stop_name":"Saint Paul Street - Inbound","parent_station":"place-stpul","parent_station_name":"Saint Paul Street","stop_lat":"42.343327","stop_lon":"-71.116997"},{"stop_order":"280","stop_id":"70216","stop_name":"Kent Street - Inbound","parent_station":"place-kntst","parent_station_name":"Kent Street","stop_lat":"42.344074","stop_lon":"-71.114197"},{"stop_order":"290","stop_id":"70214","stop_name":"Hawes Street - Inbound","parent_station":"place-hwsst","parent_station_name":"Hawes Street","stop_lat":"42.344906","stop_lon":"-71.111145"},{"stop_order":"300","stop_id":"70212","stop_name":"Saint Mary Street - Inbound","parent_station":"place-smary","parent_station_name":"Saint Marys Street","stop_lat":"42.345974","stop_lon":"-71.107353"},{"stop_order":"550","stop_id":"70150","stop_name":"Kenmore - Inbound","parent_station":"place-kencl","parent_station_name":"Kenmore","stop_lat":"42.348949","stop_lon":"-71.095169"},{"stop_order":"560","stop_id":"70152","stop_name":"Hynes - Inbound","parent_station":"place-hymnl","parent_station_name":"Hynes Convention Center","stop_lat":"42.347888","stop_lon":"-71.087903"},{"stop_order":"570","stop_id":"70154","stop_name":"Copley - Inbound","parent_station":"place-coecl","parent_station_name":"Copley","stop_lat":"42.349974","stop_lon":"-71.077447"},{"stop_order":"580","stop_id":"70156","stop_name":"Arlington - Inbound","parent_station":"place-armnl","parent_station_name":"Arlington","stop_lat":"42.351902","stop_lon":"-71.070893"},{"stop_order":"590","stop_id":"70158","stop_name":"Boylston - Inbound","parent_station":"place-boyls","parent_station_name":"Boylston","stop_lat":"42.35302","stop_lon":"-71.06459"},{"stop_order":"600","stop_id":"70200","stop_name":"Park Street - Green Line Eastbound","parent_station":"place-pktrm","parent_station_name":"Park Street","stop_lat":"42.35639457","stop_lon":"-71.0624242"},{"stop_order":"610","stop_id":"70201","stop_name":"Government Center - Green Line Eastbound","parent_station":"place-gover","parent_station_name":"Government Center","stop_lat":"42.359705","stop_lon":"-71.059215"},{"stop_order":"620","stop_id":"70203","stop_name":"Haymarket - Green Line Outbound","parent_station":"place-haecl","parent_station_name":"Haymarket","stop_lat":"42.363021","stop_lon":"-71.05829"},{"stop_order":"630","stop_id":"70205","stop_name":"North Station - Green Line Outbound","parent_station":"place-north","parent_station_name":"North Station","stop_lat":"42.365577","stop_lon":"-71.06129"}]}]}
